{
  "city": "Agra",
  "data": [
    {
      "name": "Taj Mahal",
      "city": "Agra",
      "country": "India",
      "category": "attraction",
      "tags": ["Culture", "Photography"],
      "lat": 27.1750,
      "lon": 78.0421,
      "address": "Taj East Gate Road, Taj Ganj",
      "formatted_address": "Taj Mahal, Taj East Gate Rd, Taj Ganj, Agra - 282004, Uttar Pradesh, India",
      "opening_hours": "Sa-Th 06:00-18:30",
      "website": "https://www.tajmahal.gov.in/",
      "source": "geoapify"
    },
    {
      "name": "Agra Fort",
      "city": "Agra",
      "country": "India",
      "category": "attraction",
      "tags": ["Culture"],
      "lat": 27.1797,
      "lon": 78.0218,
      "address": "Rakabganj",
      "formatted_address": "Agra Fort, Rakabganj, Agra - 282003, Uttar Pradesh, India",
      "opening_hours": "Mo-Su 06:00-18:00",
      "source": "curated"
    },
    {
      "name": "I'timād-ud-Daulah's Tomb",
      "city": "Agra",
      "country": "India",
      "category": "attraction",
      "tags": ["Culture", "Photography"],
      "lat": 27.1929,
      "lon": 78.0310,
      "address": "Moti Bagh",
      "formatted_address": "I'timād-ud-Daulah's Tomb, SH62, Agra - 402004, Uttar Pradesh, India",
      "opening_hours": "Fr-Th 08:00-18:00",
      "source": "geoapify"
    },
    {
      "name": "Mehtab Bagh",
      "city": "Agra",
      "country": "India",
      "category": "attraction",
      "tags": ["Nature", "Photography", "Culture"],
      "lat": 27.1770,
      "lon": 78.0350,
      "address": "Dharmapuri",
      "formatted_address": "Mehtab Bagh, Dharmapuri, Agra - 282001, Uttar Pradesh, India",
      "opening_hours": "Mo-Su 06:00-17:30",
      "source": "curated"
    },
    {
      "name": "Ram Bagh",
      "city": "Agra",
      "country": "India",
      "category": "attraction",
      "tags": ["Nature", "Culture"],
      "lat": 27.2055,
      "lon": 78.0385,
      "address": "Balkeshwar",
      "formatted_address": "Ram Bagh, Balkeshwar, Agra, India",
      "source": "geoapify"
    },
    {
      "name": "Fatehpur Sikri",
      "city": "Agra",
      "country": "India",
      "category": "attraction",
      "tags": ["Culture"],
      "lat": 27.0944,
      "lon": 77.6616,
      "address": "Fatehpur Sikri",
      "formatted_address": "Fatehpur Sikri, Agra District, Uttar Pradesh, India",
      "opening_hours": "Mo-Su 06:00-18:00",
      "source": "curated"
    },
    {
      "name": "Chini Ka Rauza",
      "city": "Agra",
      "country": "India",
      "category": "attraction",
      "tags": ["Culture"],
      "lat": 27.1957,
      "lon": 78.0333,
      "address": "Dharmapuri",
      "formatted_address": "Chini Ka Rauza, Dharmapuri, Agra, Uttar Pradesh, India",
      "opening_hours": "Mo-Su 08:00-18:00",
      "source": "curated"
    },
    {
      "name": "Sheroes Hangout Cafe",
      "city": "Agra",
      "country": "India",
      "category": "restaurant",
      "food_type": ["Vegetarian", "No Preference"],
      "lat": 27.1603,
      "lon": 78.0536,
      "address": "Taj East Gate Road, Taj Ganj",
      "formatted_address": "Sheroes Hangout Cafe, Taj East Gate Rd, Taj Ganj, Agra - 282001, Uttar Pradesh, India",
      "opening_hours": "Mo-Su 10:00-22:00",
      "phone": "+919958066951",
      "website": "https://www.chhanv.org/",
      "source": "geoapify"
    },
    {
      "name": "Joney's place",
      "city": "Agra",
      "country": "India",
      "category": "restaurant",
      "food_type": ["Non-Vegetarian", "Vegetarian", "No Preference"],
      "lat": 27.1692,
      "lon": 78.0419,
      "address": "Taj East Gate Road, Taj Ganj",
      "formatted_address": "Joney's place, Taj East Gate Rd, Taj Ganj, Agra - 282004, Uttar Pradesh, India",
      "opening_hours": "Mo-Su 05:00-22:30",
      "cuisine": "italian;indian;asian",
      "phone": "9837339686",
      "source": "geoapify"
    },
    {
      "name": "Sardaar Ji Da Dhaba",
      "city": "Agra",
      "country": "India",
      "category": "restaurant",
      "food_type": ["Non-Vegetarian", "Vegetarian"],
      "lat": 27.1594,
      "lon": 77.9935,
      "address": "Agra Cantonment",
      "formatted_address": "Sardaar Ji Da Dhaba, Agra Cantonment, Agra - 280001, Uttar Pradesh, India",
      "opening_hours": "24/7",
      "cuisine": "indian;chinese",
      "phone": "8171117047",
      "source": "geoapify"
    },
    {
      "name": "Peshawri at ITC Mughal",
      "city": "Agra",
      "country": "India",
      "category": "restaurant",
      "food_type": ["Non-Vegetarian"],
      "lat": 27.1664,
      "lon": 78.0291,
      "address": "Fatehabad Road",
      "formatted_address": "Peshawri, ITC Mughal, Fatehabad Rd, Agra - 282001, Uttar Pradesh, India",
      "cuisine": "north_indian;mughlai",
      "opening_hours": "Mo-Su 12:30-15:00,19:30-23:30",
      "source": "curated"
    },
    {
      "name": "Dasaprakash",
      "city": "Agra",
      "country": "India",
      "category": "restaurant",
      "food_type": ["Vegetarian"],
      "lat": 27.1793,
      "lon": 78.0080,
      "address": "1 Gwalior Road",
      "formatted_address": "Dasaprakash, 1 Gwalior Rd, Agra - 282001, Uttar Pradesh, India",
      "cuisine": "south_indian;vegetarian",
      "opening_hours": "Mo-Su 09:00-22:30",
      "source": "curated"
    },
    {
      "name": "The Oberoi Amarvilas",
      "city": "Agra",
      "country": "India",
      "category": "hotel",
      "lat": 27.1719,
      "lon": 78.0467,
      "address": "Taj East Gate Road",
      "formatted_address": "The Oberoi Amarvilas, Taj East Gate Rd, Agra - 282001, Uttar Pradesh, India",
      "rating": 9.7,
      "price": 90000,
      "currency": "INR",
      "stars": 5,
      "source": "curated"
    },
    {
      "name": "ITC Mughal, Agra",
      "city": "Agra",
      "country": "India",
      "category": "hotel",
      "lat": 27.1664,
      "lon": 78.0291,
      "address": "Fatehabad Road",
      "formatted_address": "ITC Mughal, Fatehabad Rd, Agra - 282001, Uttar Pradesh, India",
      "rating": 8.8,
      "price": 22000,
      "currency": "INR",
      "stars": 5,
      "source": "curated"
    },
    {
      "name": "Trident Agra",
      "city": "Agra",
      "country": "India",
      "category": "hotel",
      "lat": 27.1663,
      "lon": 78.0289,
      "address": "Fatehabad Road",
      "formatted_address": "Trident Agra, Fatehabad Rd, Agra - 282001, Uttar Pradesh, India",
      "rating": 8.5,
      "price": 14000,
      "currency": "INR",
      "stars": 5,
      "source": "curated"
    },
    {
      "name": "Courtyard by Marriott Agra",
      "city": "Agra",
      "country": "India",
      "category": "hotel",
      "lat": 27.1752,
      "lon": 78.0014,
      "address": "Fatehabad Road",
      "formatted_address": "Courtyard by Marriott Agra, Fatehabad Rd, Agra - 282001, Uttar Pradesh, India",
      "rating": 8.3,
      "price": 9000,
      "currency": "INR",
      "stars": 4,
      "source": "curated"
    },
    {
      "name": "Radisson Hotel Agra",
      "city": "Agra",
      "country": "India",
      "category": "hotel",
      "lat": 27.1804,
      "lon": 78.0114,
      "address": "Taj Nagari Phase II, Fatehabad Road",
      "formatted_address": "Radisson Hotel Agra, Taj Nagari Phase II, Fatehabad Rd, Agra - 282001, Uttar Pradesh, India",
      "rating": 8.4,
      "price": 11000,
      "currency": "INR",
      "stars": 4,
      "source": "curated"
    },
    {
      "name": "Wyndham Grand Agra",
      "city": "Agra",
      "country": "India",
      "category": "hotel",
      "lat": 27.1820,
      "lon": 78.0039,
      "address": "Fatehabad Road",
      "formatted_address": "Wyndham Grand Agra, Fatehabad Rd, Agra - 282001, Uttar Pradesh, India",
      "rating": 8.6,
      "price": 14000,
      "currency": "INR",
      "stars": 5,
      "source": "curated"
    },
    {
      "name": "Pinch of Spice",
      "city": "Agra",
      "country": "India",
      "category": "restaurant",
      "food_type": ["Non-Vegetarian", "Vegetarian"],
      "lat": 27.1760,
      "lon": 77.9993,
      "address": "10/2 Fatehabad Road",
      "formatted_address": "Pinch of Spice, 10/2 Fatehabad Rd, Agra - 282001, Uttar Pradesh, India",
      "cuisine": "north_indian;mughlai",
      "opening_hours": "Mo-Su 11:30-23:00",
      "source": "curated"
    },
    {
      "name": "Vedic Spice",
      "city": "Agra",
      "country": "India",
      "category": "restaurant",
      "food_type": ["Vegetarian", "Vegan"],
      "lat": 27.1701,
      "lon": 78.0388,
      "address": "Taj East Gate Road, Taj Ganj",
      "formatted_address": "Vedic Spice, Taj East Gate Rd, Taj Ganj, Agra - 282001, Uttar Pradesh, India",
      "cuisine": "vegetarian;indian",
      "opening_hours": "Mo-Su 08:00-22:00",
      "source": "curated"
    },
    {
      "name": "Akbar's Tomb (Sikandra)",
      "city": "Agra",
      "country": "India",
      "category": "attraction",
      "tags": ["Culture", "Photography"],
      "lat": 27.2482,
      "lon": 77.9655,
      "address": "Sikandra",
      "formatted_address": "Akbar's Tomb, Sikandra, Agra - 282007, Uttar Pradesh, India",
      "opening_hours": "Mo-Su 06:00-18:00",
      "source": "curated"
    },
    {
      "name": "Kinari Bazaar",
      "city": "Agra",
      "country": "India",
      "category": "attraction",
      "tags": ["Shopping", "Culture"],
      "lat": 27.1792,
      "lon": 78.0114,
      "address": "Kinari Bazaar, Sadar Bazaar",
      "formatted_address": "Kinari Bazaar, Sadar Bazaar, Agra, Uttar Pradesh, India",
      "source": "curated"
    }
  ]
}
