{
  "city": "Dubai",
  "data": [
    {
      "name": "Burj Khalifa",
      "city": "Dubai",
      "country": "United Arab Emirates",
      "category": "attraction",
      "tags": ["Culture", "Photography"],
      "lat": 25.1970,
      "lon": 55.2741,
      "address": "Sheikh Mohammed bin Rashid Boulevard",
      "formatted_address": "Burj Khalifa, Downtown Dubai, UAE",
      "website": "https://www.burjkhalifa.ae/",
      "source": "geoapify"
    },
    {
      "name": "The Dubai Mall",
      "city": "Dubai",
      "country": "United Arab Emirates",
      "category": "attraction",
      "tags": ["Shopping"],
      "lat": 25.1970,
      "lon": 55.2790,
      "address": "Financial Center Street",
      "formatted_address": "Dubai Mall, Downtown Dubai, UAE",
      "website": "https://www.thedubaimall.com/",
      "opening_hours": "Mo-Su 10:00-02:00",
      "source": "geoapify"
    },
    {
      "name": "Dubai Fountain",
      "city": "Dubai",
      "country": "United Arab Emirates",
      "category": "attraction",
      "tags": ["Culture", "Photography"],
      "lat": 25.1951,
      "lon": 55.2752,
      "address": "Downtown Dubai",
      "formatted_address": "Dubai Fountain, Downtown Dubai, UAE",
      "source": "geoapify"
    },
    {
      "name": "Jumeirah Mosque",
      "city": "Dubai",
      "country": "United Arab Emirates",
      "category": "attraction",
      "tags": ["Culture"],
      "lat": 25.2340,
      "lon": 55.2655,
      "address": "Jumeirah Beach Road",
      "formatted_address": "Jumeirah Mosque, Dubai, UAE",
      "website": "https://www.jumeirahmosque.ae/",
      "opening_hours": "Sa-Th 09:00-16:00",
      "source": "geoapify"
    },
    {
      "name": "Al Fahidi Historical Neighbourhood",
      "city": "Dubai",
      "country": "United Arab Emirates",
      "category": "attraction",
      "tags": ["Culture"],
      "lat": 25.2633,
      "lon": 55.2972,
      "address": "Bur Dubai",
      "formatted_address": "Al Fahidi Historical District, Dubai, UAE",
      "source": "geoapify"
    },
    {
      "name": "Atlantis Aquaventure Waterpark",
      "city": "Dubai",
      "country": "United Arab Emirates",
      "category": "attraction",
      "tags": ["Adventure", "Zoo"],
      "lat": 25.1304,
      "lon": 55.1171,
      "address": "Palm Jumeirah",
      "formatted_address": "Atlantis Aquaventure, Palm Jumeirah, Dubai, UAE",
      "source": "external"
    },
    {
      "name": "Dubai Creek",
      "city": "Dubai",
      "country": "United Arab Emirates",
      "category": "attraction",
      "tags": ["Culture", "Photography"],
      "lat": 25.2684,
      "lon": 55.3100,
      "address": "Deira",
      "formatted_address": "Dubai Creek, Deira, Dubai, UAE",
      "opening_hours": "24/7",
      "source": "curated"
    },
    {
      "name": "Dubai Frame",
      "city": "Dubai",
      "country": "United Arab Emirates",
      "category": "attraction",
      "tags": ["Culture", "Photography"],
      "lat": 25.2349,
      "lon": 55.3003,
      "address": "Zabeel Park, Al Jafiliya",
      "formatted_address": "Dubai Frame, Zabeel Park, Al Jafiliya, Dubai, UAE",
      "opening_hours": "Mo-Su 09:00-21:00",
      "website": "https://www.dubaiframe.ae/",
      "source": "curated"
    },
    {
      "name": "Gold Souk",
      "city": "Dubai",
      "country": "United Arab Emirates",
      "category": "attraction",
      "tags": ["Shopping", "Culture"],
      "lat": 25.2848,
      "lon": 55.3085,
      "address": "Old Baladiya Street, Deira",
      "formatted_address": "Gold Souk, Deira, Dubai, UAE",
      "opening_hours": "Mo-Sa 10:00-22:00; Su 16:00-22:00",
      "source": "curated"
    },
    {
      "name": "Palm Jumeirah",
      "city": "Dubai",
      "country": "United Arab Emirates",
      "category": "attraction",
      "tags": ["Beaches", "Photography"],
      "lat": 25.1124,
      "lon": 55.1390,
      "address": "Palm Jumeirah",
      "formatted_address": "Palm Jumeirah, Dubai, UAE",
      "source": "curated"
    },
    {
      "name": "Zuma Dubai",
      "city": "Dubai",
      "country": "United Arab Emirates",
      "category": "restaurant",
      "food_type": ["Non-Vegetarian", "No Preference"],
      "lat": 25.2048,
      "lon": 55.2708,
      "address": "Gate Village, DIFC",
      "formatted_address": "Zuma, DIFC, Dubai, UAE",
      "website": "https://zumarestaurant.com/",
      "cuisine": "japanese;contemporary",
      "source": "external"
    },
    {
      "name": "Pierchic",
      "city": "Dubai",
      "country": "United Arab Emirates",
      "category": "restaurant",
      "food_type": ["Non-Vegetarian"],
      "lat": 25.1312,
      "lon": 55.1850,
      "address": "Al Qasr Hotel",
      "formatted_address": "Pierchic, Jumeirah, Dubai, UAE",
      "cuisine": "seafood;italian",
      "source": "external"
    },
    {
      "name": "Al Fanar Restaurant",
      "city": "Dubai",
      "country": "United Arab Emirates",
      "category": "restaurant",
      "food_type": ["Non-Vegetarian", "Halal"],
      "lat": 25.2522,
      "lon": 55.3245,
      "address": "Festival City",
      "formatted_address": "Al Fanar Restaurant, Dubai Festival City, UAE",
      "cuisine": "emirati",
      "source": "external"
    },
    {
      "name": "Ravi Restaurant",
      "city": "Dubai",
      "country": "United Arab Emirates",
      "category": "restaurant",
      "food_type": ["Non-Vegetarian", "Halal"],
      "lat": 25.2285,
      "lon": 55.2773,
      "address": "Al Satwa",
      "formatted_address": "Ravi Restaurant, Al Satwa, Dubai, UAE",
      "cuisine": "pakistani",
      "source": "external"
    },
    {
      "name": "Nobu Dubai",
      "city": "Dubai",
      "country": "United Arab Emirates",
      "category": "restaurant",
      "food_type": ["Non-Vegetarian"],
      "lat": 25.1313,
      "lon": 55.1861,
      "address": "Atlantis The Palm",
      "formatted_address": "Nobu Dubai, Atlantis The Palm, Palm Jumeirah, Dubai, UAE",
      "cuisine": "japanese;peruvian;fusion",
      "opening_hours": "Mo-Su 13:00-16:00,19:00-00:00",
      "website": "https://www.atlantis.com/dubai/restaurants-bars/nobu",
      "source": "curated"
    },
    {
      "name": "Dinner in the Sky Dubai",
      "city": "Dubai",
      "country": "United Arab Emirates",
      "category": "restaurant",
      "food_type": ["Non-Vegetarian", "No Preference"],
      "lat": 25.2048,
      "lon": 55.2746,
      "address": "Dubai International Financial Centre",
      "formatted_address": "Dinner in the Sky, Downtown Dubai, UAE",
      "cuisine": "international",
      "source": "curated"
    },
    {
      "name": "Logma",
      "city": "Dubai",
      "country": "United Arab Emirates",
      "category": "restaurant",
      "food_type": ["Non-Vegetarian", "Halal"],
      "lat": 25.2114,
      "lon": 55.2888,
      "address": "Box Park, Al Wasl Road",
      "formatted_address": "Logma, Box Park, Al Wasl Rd, Dubai, UAE",
      "cuisine": "emirati;traditional",
      "opening_hours": "Mo-Su 08:00-23:00",
      "source": "curated"
    },
    {
      "name": "Atlantis, The Palm",
      "city": "Dubai",
      "country": "United Arab Emirates",
      "category": "hotel",
      "lat": 25.1305,
      "lon": 55.1167,
      "address": "Palm Jumeirah",
      "formatted_address": "Atlantis The Palm, Dubai, UAE",
      "rating": 9.0,
      "price": 45000,
      "currency": "INR",
      "stars": 5,
      "source": "booking"
    },
    {
      "name": "Address Beach Resort",
      "city": "Dubai",
      "country": "United Arab Emirates",
      "category": "hotel",
      "lat": 25.0723,
      "lon": 55.1267,
      "address": "Jumeirah Beach Residence",
      "formatted_address": "Address Beach Resort, Dubai, UAE",
      "rating": 9.2,
      "price": 55000,
      "currency": "INR",
      "stars": 5,
      "source": "booking"
    },
    {
      "name": "Rove City Walk",
      "city": "Dubai",
      "country": "United Arab Emirates",
      "category": "hotel",
      "lat": 25.2053,
      "lon": 55.2681,
      "address": "Al Wasl",
      "formatted_address": "Rove City Walk, Dubai, UAE",
      "rating": 8.8,
      "price": 12000,
      "currency": "INR",
      "stars": 3,
      "source": "booking"
    },
    {
      "name": "Palace Dubai Creek Harbour",
      "city": "Dubai",
      "country": "United Arab Emirates",
      "category": "hotel",
      "lat": 25.2042,
      "lon": 55.3474,
      "address": "Dubai Creek Harbour",
      "formatted_address": "Palace Dubai Creek Harbour, Dubai, UAE",
      "rating": 9.1,
      "price": 35000,
      "currency": "INR",
      "stars": 5,
      "source": "booking"
    },
    {
      "name": "Conrad Dubai",
      "city": "Dubai",
      "country": "United Arab Emirates",
      "category": "hotel",
      "lat": 25.2257,
      "lon": 55.2841,
      "address": "Sheikh Zayed Road",
      "formatted_address": "Conrad Dubai, Sheikh Zayed Road, UAE",
      "rating": 9.0,
      "price": 22000,
      "currency": "INR",
      "stars": 5,
      "source": "booking"
    },
    {
      "name": "Burj Al Arab Jumeirah",
      "city": "Dubai",
      "country": "United Arab Emirates",
      "category": "hotel",
      "lat": 25.1412,
      "lon": 55.1853,
      "address": "Jumeirah Beach Road",
      "formatted_address": "Burj Al Arab, Jumeirah Beach Rd, Dubai, UAE",
      "rating": 9.6,
      "price": 150000,
      "currency": "INR",
      "stars": 7,
      "source": "curated"
    },
    {
      "name": "JW Marriott Marquis Dubai",
      "city": "Dubai",
      "country": "United Arab Emirates",
      "category": "hotel",
      "lat": 25.1855,
      "lon": 55.2751,
      "address": "Sheikh Zayed Road, Business Bay",
      "formatted_address": "JW Marriott Marquis, Sheikh Zayed Rd, Business Bay, Dubai, UAE",
      "rating": 9.1,
      "price": 28000,
      "currency": "INR",
      "stars": 5,
      "source": "curated"
    }
  ]
}
