{
  "city": "Munnar",
  "data": [
    {
      "name": "Tea Estates Viewpoint",
      "city": "Munnar",
      "country": "India",
      "category": "attraction",
      "tags": ["Nature", "Photography"],
      "lat": 10.0902,
      "lon": 77.0878,
      "address": "Munnar - Top Station Highway",
      "formatted_address": "Tea Estates, Old Munnar, Mattupetty - 685612, Kerala, India",
      "source": "openstreetmap"
    },
    {
      "name": "Hydel Park",
      "city": "Munnar",
      "country": "India",
      "category": "attraction",
      "tags": ["Nature"],
      "lat": 10.0696,
      "lon": 77.0668,
      "address": "Hydel Park",
      "formatted_address": "Hydel Park, Old Munnar, Devikulam - 685613, Kerala, India",
      "source": "openstreetmap"
    },
    {
      "name": "Photo Point",
      "city": "Munnar",
      "country": "India",
      "category": "attraction",
      "tags": ["Nature", "Photography"],
      "lat": 10.0924,
      "lon": 77.0891,
      "address": "Photo Point",
      "formatted_address": "Photo Point, Munnar - Top Station Highway, Old Munnar, Kerala, India",
      "source": "openstreetmap"
    },
    {
      "name": "Pothamedu Viewpoint",
      "city": "Munnar",
      "country": "India",
      "category": "attraction",
      "tags": ["Nature", "Photography"],
      "lat": 10.0596,
      "lon": 77.0641,
      "address": "Pothamedu",
      "formatted_address": "Pothamedu Viewpoint, Old Munnar, Kerala, India",
      "source": "openstreetmap"
    },
    {
      "name": "Calmelagiri Botanical Garden",
      "city": "Munnar",
      "country": "India",
      "category": "attraction",
      "tags": ["Nature"],
      "lat": 10.0961,
      "lon": 77.1014,
      "address": "Calmelagiri",
      "formatted_address": "Calmelagiri Botanical Garden, Old Munnar, Kerala, India",
      "source": "openstreetmap"
    },
    {
      "name": "Eravikulam National Park",
      "city": "Munnar",
      "country": "India",
      "category": "attraction",
      "tags": ["Nature", "Adventure", "Zoo"],
      "lat": 10.1678,
      "lon": 77.0784,
      "address": "Rajamala",
      "formatted_address": "Eravikulam National Park, Rajamala, Munnar, Kerala 685612, India",
      "opening_hours": "Mo-Su 07:30-17:00",
      "source": "curated"
    },
    {
      "name": "Mattupetty Dam",
      "city": "Munnar",
      "country": "India",
      "category": "attraction",
      "tags": ["Nature", "Photography"],
      "lat": 10.1150,
      "lon": 77.1283,
      "address": "Mattupetty",
      "formatted_address": "Mattupetty Dam, Mattupetty, Munnar, Kerala 685616, India",
      "opening_hours": "Mo-Su 09:00-17:00",
      "source": "curated"
    },
    {
      "name": "Tea Museum",
      "city": "Munnar",
      "country": "India",
      "category": "attraction",
      "tags": ["Culture"],
      "lat": 10.0879,
      "lon": 77.0605,
      "address": "Nallathanni Estate",
      "formatted_address": "Tea Museum, Nallathanni Estate, Munnar, Kerala 685612, India",
      "opening_hours": "Tu-Su 09:00-16:00",
      "source": "curated"
    },
    {
      "name": "Anamudi Peak",
      "city": "Munnar",
      "country": "India",
      "category": "attraction",
      "tags": ["Adventure", "Nature"],
      "lat": 10.1698,
      "lon": 77.0597,
      "address": "Eravikulam",
      "formatted_address": "Anamudi Peak (highest in South India), Eravikulam, Munnar, Kerala, India",
      "source": "curated"
    },
    {
      "name": "Hotel Cochin",
      "city": "Munnar",
      "country": "India",
      "category": "restaurant",
      "food_type": ["Non-Vegetarian", "Vegetarian"],
      "lat": 10.0782,
      "lon": 77.0630,
      "address": "Kochi - Dhanushkodi Road",
      "formatted_address": "Hotel Cochin, Kochi - Dhanushkodi Rd, Old Munnar, Kerala, India",
      "opening_hours": "Mo-Su 07:30-21:00",
      "source": "openstreetmap"
    },
    {
      "name": "Ali Baba & 41 Dishes",
      "city": "Munnar",
      "country": "India",
      "category": "restaurant",
      "food_type": ["Non-Vegetarian", "Halal"],
      "lat": 10.0740,
      "lon": 77.0612,
      "address": "Kochi - Dhanushkodi Road",
      "formatted_address": "Ali Baba & 41 Dishes, Old Munnar, Kerala, India",
      "website": "http://www.alibaba41dishes.com",
      "cuisine": "indian",
      "source": "openstreetmap"
    },
    {
      "name": "Saravana Bhavan Pure Veg",
      "city": "Munnar",
      "country": "India",
      "category": "restaurant",
      "food_type": ["Vegetarian", "Vegan"],
      "lat": 10.0872,
      "lon": 77.0597,
      "address": "Northern Outlet Road, Munnar Bazaar",
      "formatted_address": "Saravana Bhavan, Munnar Bazaar, Kerala, India",
      "cuisine": "south_indian;vegetarian",
      "source": "openstreetmap"
    },
    {
      "name": "Rochas Restaurant Munnar",
      "city": "Munnar",
      "country": "India",
      "category": "restaurant",
      "food_type": ["Non-Vegetarian", "Vegetarian"],
      "lat": 10.0875,
      "lon": 77.0647,
      "address": "Top Station Shortcut Road",
      "formatted_address": "Rochas Restaurant Munnar, Munnar Bazaar, Kerala, India",
      "source": "openstreetmap"
    },
    {
      "name": "Sri Ashvini Karaikudi Chettinad Restaurant",
      "city": "Munnar",
      "country": "India",
      "category": "restaurant",
      "food_type": ["Vegetarian", "Non-Vegetarian"],
      "lat": 10.0738,
      "lon": 77.0622,
      "address": "Kochi - Dhanushkodi Road",
      "formatted_address": "Sri Ashvini, Kochi - Dhanushkodi Rd, Old Munnar, Kerala, India",
      "source": "openstreetmap"
    },
    {
      "name": "Rapsy Restaurant",
      "city": "Munnar",
      "country": "India",
      "category": "restaurant",
      "food_type": ["Non-Vegetarian", "Vegetarian"],
      "lat": 10.0880,
      "lon": 77.0603,
      "address": "Northern Outlet Road",
      "formatted_address": "Rapsy Restaurant, Northern Outlet Rd, Munnar Bazaar, Kerala, India",
      "cuisine": "indian",
      "source": "openstreetmap"
    },
    {
      "name": "The Windermere Estate",
      "city": "Munnar",
      "country": "India",
      "category": "hotel",
      "lat": 10.0854,
      "lon": 77.0604,
      "address": "Pothamedu",
      "formatted_address": "The Windermere Estate, Pothamedu, Munnar, Kerala 685612, India",
      "rating": 9.2,
      "price": 12000,
      "currency": "INR",
      "stars": 4,
      "source": "curated"
    },
    {
      "name": "Spice Tree Munnar",
      "city": "Munnar",
      "country": "India",
      "category": "hotel",
      "lat": 10.1022,
      "lon": 77.1032,
      "address": "Anayirangal",
      "formatted_address": "Spice Tree Munnar, Anayirangal, Munnar, Kerala 685612, India",
      "rating": 9.4,
      "price": 18000,
      "currency": "INR",
      "stars": 5,
      "source": "curated"
    },
    {
      "name": "Tall Trees Munnar",
      "city": "Munnar",
      "country": "India",
      "category": "hotel",
      "lat": 10.0761,
      "lon": 77.0606,
      "address": "Bison Valley Road",
      "formatted_address": "Tall Trees, Bison Valley Rd, Munnar, Kerala 685618, India",
      "rating": 8.9,
      "price": 10000,
      "currency": "INR",
      "stars": 4,
      "source": "curated"
    },
    {
      "name": "Tea Valley Resort Munnar",
      "city": "Munnar",
      "country": "India",
      "category": "hotel",
      "lat": 10.0892,
      "lon": 77.0593,
      "address": "Chinnakanal",
      "formatted_address": "Tea Valley Resort, Chinnakanal, Munnar, Kerala 685618, India",
      "rating": 8.5,
      "price": 7000,
      "currency": "INR",
      "stars": 3,
      "source": "curated"
    },
    {
      "name": "Eastend Munnar",
      "city": "Munnar",
      "country": "India",
      "category": "hotel",
      "lat": 10.0877,
      "lon": 77.0632,
      "address": "Temple Road",
      "formatted_address": "Eastend Munnar, Temple Rd, Munnar, Kerala 685612, India",
      "rating": 8.3,
      "price": 8000,
      "currency": "INR",
      "stars": 4,
      "source": "curated"
    }
  ]
}
