{
  "city": "Munnar",
  "data": [
    {
      "name": "Tea",
      "city": "Munnar",
      "country": "India",
      "category": "attraction",
      "lat": 10.0902362,
      "lon": 77.0878224,
      "address": "Tea",
      "formatted_address": "Tea, Munnar - Top Station Highway, Old Munnar, Mattupetty - 685612, Kerala, India",
      "source": "openstreetmap"
    },
    {
      "name": "Hydel Park",
      "city": "Munnar",
      "country": "India",
      "category": "attraction",
      "lat": 10.0696174,
      "lon": 77.0667561,
      "address": "Hydel Park",
      "formatted_address": "Hydel Park, Old Munnar, Devikulam - 685613, Kerala, India",
      "source": "openstreetmap"
    },
    {
      "name": "Honey Tree",
      "city": "Munnar",
      "country": "India",
      "category": "attraction",
      "lat": 10.0933457,
      "lon": 77.091887,
      "address": "Honey Tree",
      "formatted_address": "Honey Tree, Munnar - Top Station Highway, Old Munnar, Mattupetty - 685612, Kerala, India",
      "source": "openstreetmap"
    },
    {
      "name": "Photo Point",
      "city": "Munnar",
      "country": "India",
      "category": "attraction",
      "lat": 10.0923553,
      "lon": 77.089065,
      "address": "Photo Point",
      "formatted_address": "Photo Point, Munnar - Top Station Highway, Old Munnar, Mattupetty - 685612, Kerala, India",
      "source": "openstreetmap"
    },
    {
      "name": "Pothamedu",
      "city": "Munnar",
      "country": "India",
      "category": "attraction",
      "lat": 10.059648,
      "lon": 77.064075,
      "address": "Pothamedu",
      "formatted_address": "Munnar pothamedu viewpoint road, Old Munnar, Kerala, India",
      "source": "openstreetmap"
    },
    {
      "name": "Flowers house",
      "city": "Munnar",
      "country": "India",
      "category": "attraction",
      "lat": 10.0668351,
      "lon": 77.0735631,
      "address": "Flowers house",
      "formatted_address": "Flowers house, Kochi - Dhanushkodi Road, Old Munnar, Kerala, India",
      "source": "openstreetmap"
    },
    {
      "name": "Cheeky river crossing to Latchmi Estate",
      "city": "Munnar",
      "country": "India",
      "category": "attraction",
      "lat": 10.0723383,
      "lon": 77.056862,
      "address": "Cheeky river crossing to Latchmi Estate",
      "formatted_address": "Cheeky river crossing to Latchmi Estate, Old Munnar, Kerala, India",
      "source": "openstreetmap"
    },
    {
      "name": "Tea paddies",
      "city": "Munnar",
      "country": "India",
      "category": "attraction",
      "lat": 10.0918752,
      "lon": 77.0872786,
      "address": "Tea paddies",
      "formatted_address": "Tea paddies, Munnar - Top Station Highway, Old Munnar, Kerala, India",
      "source": "openstreetmap"
    },
    {
      "name": "Tea paddies panorama",
      "city": "Munnar",
      "country": "India",
      "category": "attraction",
      "lat": 10.0909965,
      "lon": 77.0881105,
      "address": "Tea paddies panorama",
      "formatted_address": "Tea paddies panorama, Old Munnar, Kerala, India",
      "source": "openstreetmap"
    },
    {
      "name": "Calmelagiri Botanical Garden",
      "city": "Munnar",
      "country": "India",
      "category": "attraction",
      "lat": 10.0960601,
      "lon": 77.1014348,
      "address": "Calmelagiri Botanical Garden",
      "formatted_address": "Calmelagiri Botanical Garden, Old Munnar, Kerala, India",
      "source": "openstreetmap"
    },

    {
      "name": "Hotel Cochin",
      "city": "Munnar",
      "country": "India",
      "category": "restaurant",
      "lat": 10.0781506,
      "lon": 77.0630028,
      "address": "Hotel Cochin",
      "formatted_address": "Hotel Cochin, Kochi - Dhanushkodi Road, Old Munnar, Kerala, India",
      "opening_hours": "Mo-Su 07:30-21:00",
      "source": "openstreetmap"
    },
    {
      "name": "Ali Baba & 41 Dishes",
      "city": "Munnar",
      "country": "India",
      "category": "restaurant",
      "lat": 10.0739711,
      "lon": 77.0611514,
      "address": "Ali Baba & 41 Dishes",
      "formatted_address": "Ali Baba & 41 Dishes, Old Munnar, Kerala, India",
      "website": "http://www.alibaba41dishes.com",
      "cuisine": "indian",
      "source": "openstreetmap"
    },
    {
      "name": "Saravana Bhavan pur Veg",
      "city": "Munnar",
      "country": "India",
      "category": "restaurant",
      "lat": 10.0872093,
      "lon": 77.059678,
      "address": "Saravana Bhavan pur Veg",
      "formatted_address": "Northern Outlet Road, Munnar Bazaar, Kerala, India",
      "cuisine": "indian",
      "source": "openstreetmap"
    },
    {
      "name": "Rochas Restaurant Munnar",
      "city": "Munnar",
      "country": "India",
      "category": "restaurant",
      "lat": 10.0875015,
      "lon": 77.0646819,
      "address": "Rochas Restaurant Munnar",
      "formatted_address": "Top Station Shortcut Road, Munnar Bazaar, Kerala, India",
      "source": "openstreetmap"
    },
    {
      "name": "Sri Ashvini Karaikudi Chettinad Restaurant",
      "city": "Munnar",
      "country": "India",
      "category": "restaurant",
      "lat": 10.0738421,
      "lon": 77.0621718,
      "address": "Sri Ashvini Karaikudi Chettinad Restaurant",
      "formatted_address": "Kochi - Dhanushkodi Road, Old Munnar, Kerala, India",
      "source": "openstreetmap"
    },
    {
      "name": "Rapsy Restaurant",
      "city": "Munnar",
      "country": "India",
      "category": "restaurant",
      "lat": 10.0880375,
      "lon": 77.0603339,
      "address": "Rapsy Restaurant",
      "formatted_address": "Northern Outlet Road, Munnar Bazaar, Kerala, India",
      "cuisine": "indian",
      "source": "openstreetmap"
    },
    {
      "name": "Sree Mahaveer",
      "city": "Munnar",
      "country": "India",
      "category": "restaurant",
      "lat": 10.0871,
      "lon": 77.0599,
      "address": "Sree Mahaveer",
      "formatted_address": "Northern Outlet Road, Munnar Bazaar, Kerala, India",
      "source": "openstreetmap"
    },
    {
      "name": "SN Restaurant",
      "city": "Munnar",
      "country": "India",
      "category": "restaurant",
      "lat": 10.07461,
      "lon": 77.06319,
      "address": "SN Restaurant",
      "formatted_address": "Kochi - Dhanushkodi Road, Old Munnar, Kerala, India",
      "cuisine": "regional",
      "source": "openstreetmap"
    },
    {
      "name": "NFC",
      "city": "Munnar",
      "country": "India",
      "category": "restaurant",
      "lat": 10.0761693,
      "lon": 77.0631973,
      "address": "NFC",
      "formatted_address": "Kochi - Dhanushkodi Road, Old Munnar, Kerala, India",
      "source": "openstreetmap"
    },
    {
      "name": "Gurubhavan Munnar",
      "city": "Munnar",
      "country": "India",
      "category": "restaurant",
      "lat": 10.0877375,
      "lon": 77.064938,
      "address": "Gurubhavan",
      "formatted_address": "Top Station Shortcut Road, Munnar Bazaar, Kerala, India",
      "source": "openstreetmap"
    }
  ]
}