{
  "city": "Seoul",
  "country": "South Korea",
  "data": {
    
    "attractions": [
      {
        "name": "Namsan Seoul Tower",
        "category": "attraction",
        "type": "tower",
        "lat": 37.5512692,
        "lon": 126.9882959,
        "rating": null,
        "address": "Namsangongwon-gil, Jung-gu",
        "opening_hours": "10:00-23:00",
        "website": "https://www.seoultower.co.kr/"
      },
      {
        "name": "Gyeongbokgung Palace",
        "category": "attraction",
        "type": "palace",
        "lat": 37.579754,
        "lon": 126.9766818,
        "rating": null,
        "address": "Jongno-gu",
        "opening_hours": "09:00-18:00",
        "website": "http://www.royalpalace.go.kr"
      },
      {
        "name": "Changdeokgung Palace",
        "category": "attraction",
        "type": "heritage_site",
        "lat": 37.5823872,
        "lon": 126.9917013,
        "rating": null,
        "address": "Yulgok-ro, Jongno-gu",
        "opening_hours": null,
        "website": "www.cdg.go.kr"
      },
      {
        "name": "Namsangol Hanok Village",
        "category": "attraction",
        "type": "cultural_village",
        "lat": 37.5592839,
        "lon": 126.9944767,
        "rating": null,
        "address": "Toegye-ro, Jung-gu",
        "opening_hours": null,
        "website": "https://www.hanokmaeul.or.kr/"
      },
      {
        "name": "Namdaemun Market",
        "category": "attraction",
        "type": "market",
        "lat": 37.5592777,
        "lon": 126.9773485,
        "rating": null,
        "address": "Namdaemunsijang-gil",
        "opening_hours": null,
        "website": "http://www.namdaemunmarket.co.kr/"
      },
      {
        "name": "Tapgol Park",
        "category": "attraction",
        "type": "park",
        "lat": 37.5711768,
        "lon": 126.9886477,
        "rating": null,
        "address": "Jongno-gu",
        "opening_hours": null,
        "website": null
      },
      {
        "name": "Ssamziegil",
        "category": "attraction",
        "type": "shopping_complex",
        "lat": 37.5742228,
        "lon": 126.9847289,
        "rating": null,
        "address": "Insadong-gil",
        "opening_hours": null,
        "website": null
      }
    ],

    "restaurants": [
      {
        "name": "La Yeon",
        "category": "restaurant",
        "cuisine": "Korean",
        "lat": 37.5555154,
        "lon": 127.0051801,
        "price_level": "luxury",
        "rating": null,
        "opening_hours": "12:00-22:00",
        "features": ["fine dining", "Michelin"]
      },
      {
        "name": "Wooraeok",
        "category": "restaurant",
        "cuisine": "noodle",
        "lat": 37.5682154,
        "lon": 126.9988152,
        "price_level": "mid",
        "rating": null,
        "opening_hours": "11:30-21:30",
        "features": []
      },
      {
        "name": "Bukchon Son Mandoo",
        "category": "restaurant",
        "cuisine": "Korean",
        "lat": 37.5789553,
        "lon": 126.971769,
        "price_level": "budget",
        "rating": null,
        "opening_hours": "10:30-21:00",
        "features": ["dumplings"]
      },
      {
        "name": "Hwang Saeng Ga Noodles Soup",
        "category": "restaurant",
        "cuisine": "noodle",
        "lat": 37.5801404,
        "lon": 126.9806836,
        "price_level": "mid",
        "rating": null,
        "opening_hours": "11:00-21:30",
        "features": ["vegetarian options"]
      },
      {
        "name": "Samcheonggak",
        "category": "restaurant",
        "cuisine": "Korean",
        "lat": 37.5973997,
        "lon": 126.9841405,
        "price_level": "luxury",
        "rating": null,
        "opening_hours": "12:00-22:00",
        "features": ["traditional"]
      },
       {
        "name": "Jongno KS Stay",
        "category": "hotel",
        "type": "budget",
        "lat": 37.5730683,
        "lon": 126.9887365,
        "price_per_night": 26641,
        "currency": "INR",
        "rating": 8.6,
        "review_count": 173,
        "stars": null,
        "checkin": "16:00",
        "checkout": "11:00",
        "features": ["budget", "central location"]
      },
      {
        "name": "ibis Styles Ambassador Seoul Yongsan",
        "category": "hotel",
        "type": "mid",
        "lat": 37.532285,
        "lon": 126.961738,
        "price_per_night": 24707,
        "currency": "INR",
        "rating": 8.4,
        "review_count": 1167,
        "stars": 4,
        "checkin": "15:00",
        "checkout": "11:00",
        "features": ["business", "modern"]
      },
      {
        "name": "Signiel Seoul",
        "category": "hotel",
        "type": "luxury",
        "lat": 37.512652,
        "lon": 127.102529,
        "price_per_night": 82357,
        "currency": "INR",
        "rating": 9.3,
        "review_count": 693,
        "stars": 5,
        "checkin": "15:00",
        "checkout": "11:00",
        "features": ["luxury", "city view", "premium"]
      },
      {
        "name": "Travelodge Dongdaemun Seoul",
        "category": "hotel",
        "type": "mid",
        "lat": 37.566411,
        "lon": 127.001922,
        "price_per_night": 30620,
        "currency": "INR",
        "rating": 7.7,
        "review_count": 1815,
        "stars": 3,
        "checkin": "14:00",
        "checkout": "12:00",
        "features": ["budget-friendly", "central"]
      },
      {
        "name": "Slowon Hongdae",
        "category": "hotel",
        "type": "mid",
        "lat": 37.5538243,
        "lon": 126.9202175,
        "price_per_night": 39704,
        "currency": "INR",
        "rating": 8.9,
        "review_count": 145,
        "stars": null,
        "checkin": "15:00",
        "checkout": "11:00",
        "features": ["trendy area", "breakfast included"]
      },
      {
        "name": "Shilla Stay Gangnam Yeoksam",
        "category": "hotel",
        "type": "mid",
        "lat": 37.504759,
        "lon": 127.041558,
        "price_per_night": 37369,
        "currency": "INR",
        "rating": 8.1,
        "review_count": 925,
        "stars": 4,
        "checkin": "15:00",
        "checkout": "12:00",
        "features": ["business", "gangnam"]
      },
      {
        "name": "Hotel Naru Seoul - MGallery Collection",
        "category": "hotel",
        "type": "luxury",
        "lat": 37.53715,
        "lon": 126.94399,
        "price_per_night": 86158,
        "currency": "INR",
        "rating": 9.1,
        "review_count": 388,
        "stars": 5,
        "checkin": "15:00",
        "checkout": "11:00",
        "features": ["luxury", "river view"]
      },
      {
        "name": "Doksan 3S Hotel",
        "category": "hotel",
        "type": "budget",
        "lat": 37.465218,
        "lon": 126.8971607,
        "price_per_night": 17770,
        "currency": "INR",
        "rating": 8.8,
        "review_count": 170,
        "stars": 2,
        "checkin": "20:00",
        "checkout": "11:00",
        "features": ["cheap", "good value"]
      },
      {
        "name": "Ramada by Wyndham Seoul Dongdaemun",
        "category": "hotel",
        "type": "mid",
        "lat": 37.5659175,
        "lon": 127.0025834,
        "price_per_night": 41314,
        "currency": "INR",
        "rating": 8.1,
        "review_count": 1342,
        "stars": 3,
        "checkin": "15:00",
        "checkout": "11:00",
        "features": ["reliable chain", "central"]
      },
      {
        "name": "Hotel Myeongdongjang",
        "category": "hotel",
        "type": "mid",
        "lat": 37.5624192,
        "lon": 126.9844828,
        "price_per_night": 50381,
        "currency": "INR",
        "rating": 8.8,
        "review_count": 510,
        "stars": 4,
        "checkin": "15:00",
        "checkout": "11:00",
        "features": ["central", "shopping district"]
      }
    ]

  }
}