{
  "city": "Seoul",
  "data": [
    {
      "name": "Namsan Seoul Tower",
      "city": "Seoul",
      "country": "South Korea",
      "category": "attraction",
      "tags": ["Culture", "Photography"],
      "lat": 37.5513,
      "lon": 126.9883,
      "address": "Namsangongwon-gil, Jung-gu",
      "formatted_address": "N Seoul Tower, 105 Namsangongwon-gil, Jung-gu, Seoul, South Korea",
      "opening_hours": "Mo-Su 10:00-23:00",
      "website": "https://www.seoultower.co.kr/",
      "source": "curated"
    },
    {
      "name": "Gyeongbokgung Palace",
      "city": "Seoul",
      "country": "South Korea",
      "category": "attraction",
      "tags": ["Culture", "Photography"],
      "lat": 37.5798,
      "lon": 126.9768,
      "address": "161 Sajik-ro, Jongno-gu",
      "formatted_address": "Gyeongbokgung Palace, 161 Sajik-ro, Jongno-gu, Seoul, South Korea",
      "opening_hours": "Mo,We-Su 09:00-18:00",
      "website": "http://www.royalpalace.go.kr",
      "source": "curated"
    },
    {
      "name": "Changdeokgung Palace",
      "city": "Seoul",
      "country": "South Korea",
      "category": "attraction",
      "tags": ["Culture", "Photography"],
      "lat": 37.5824,
      "lon": 126.9910,
      "address": "99 Yulgok-ro, Jongno-gu",
      "formatted_address": "Changdeokgung Palace, 99 Yulgok-ro, Jongno-gu, Seoul, South Korea",
      "opening_hours": "Tu-Su 09:00-17:30",
      "website": "https://www.cdg.go.kr",
      "source": "curated"
    },
    {
      "name": "Namsangol Hanok Village",
      "city": "Seoul",
      "country": "South Korea",
      "category": "attraction",
      "tags": ["Culture"],
      "lat": 37.5593,
      "lon": 126.9945,
      "address": "28 Toegye-ro, Jung-gu",
      "formatted_address": "Namsangol Hanok Village, 28 Toegye-ro, Jung-gu, Seoul, South Korea",
      "opening_hours": "Tu-Su 09:00-21:00",
      "website": "https://www.hanokmaeul.or.kr/",
      "source": "curated"
    },
    {
      "name": "Namdaemun Market",
      "city": "Seoul",
      "country": "South Korea",
      "category": "attraction",
      "tags": ["Shopping", "Culture"],
      "lat": 37.5593,
      "lon": 126.9773,
      "address": "Namdaemunsijang-gil, Jung-gu",
      "formatted_address": "Namdaemun Market, Jung-gu, Seoul, South Korea",
      "website": "http://www.namdaemunmarket.co.kr/",
      "source": "curated"
    },
    {
      "name": "Ssamziegil",
      "city": "Seoul",
      "country": "South Korea",
      "category": "attraction",
      "tags": ["Shopping", "Culture"],
      "lat": 37.5742,
      "lon": 126.9847,
      "address": "44 Insadong-gil, Jongno-gu",
      "formatted_address": "Ssamziegil, 44 Insadong-gil, Jongno-gu, Seoul, South Korea",
      "opening_hours": "Mo-Su 10:00-20:30",
      "source": "curated"
    },
    {
      "name": "Bukchon Hanok Village",
      "city": "Seoul",
      "country": "South Korea",
      "category": "attraction",
      "tags": ["Culture", "Photography"],
      "lat": 37.5826,
      "lon": 126.9853,
      "address": "Gye-dong, Jongno-gu",
      "formatted_address": "Bukchon Hanok Village, Gahoe-dong, Jongno-gu, Seoul, South Korea",
      "opening_hours": "24/7",
      "source": "curated"
    },
    {
      "name": "Myeongdong Shopping Street",
      "city": "Seoul",
      "country": "South Korea",
      "category": "attraction",
      "tags": ["Shopping", "Nightlife"],
      "lat": 37.5636,
      "lon": 126.9847,
      "address": "Myeongdong-gil, Jung-gu",
      "formatted_address": "Myeongdong, Jung-gu, Seoul, South Korea",
      "opening_hours": "Mo-Su 10:00-23:00",
      "source": "curated"
    },
    {
      "name": "Hongdae Street",
      "city": "Seoul",
      "country": "South Korea",
      "category": "attraction",
      "tags": ["Nightlife", "Shopping", "Culture"],
      "lat": 37.5565,
      "lon": 126.9226,
      "address": "Hongik-ro, Mapo-gu",
      "formatted_address": "Hongdae, Mapo-gu, Seoul, South Korea",
      "opening_hours": "24/7",
      "source": "curated"
    },
    {
      "name": "Lotte World Tower & Sky Observatory",
      "city": "Seoul",
      "country": "South Korea",
      "category": "attraction",
      "tags": ["Photography", "Culture"],
      "lat": 37.5127,
      "lon": 127.1024,
      "address": "300 Olympic-ro, Songpa-gu",
      "formatted_address": "Lotte World Tower, 300 Olympic-ro, Songpa-gu, Seoul, South Korea",
      "opening_hours": "Mo-Su 10:30-22:00",
      "website": "https://www.lwt.co.kr/",
      "source": "curated"
    },
    {
      "name": "La Yeon",
      "city": "Seoul",
      "country": "South Korea",
      "category": "restaurant",
      "food_type": ["Non-Vegetarian", "No Preference"],
      "lat": 37.5555,
      "lon": 127.0052,
      "address": "The Shilla Seoul, 249 Dongho-ro, Jung-gu",
      "formatted_address": "La Yeon, The Shilla Seoul, 249 Dongho-ro, Jung-gu, Seoul, South Korea",
      "cuisine": "korean;fine_dining;michelin",
      "opening_hours": "Mo-Su 12:00-14:30,18:00-21:30",
      "source": "curated"
    },
    {
      "name": "Wooraeok",
      "city": "Seoul",
      "country": "South Korea",
      "category": "restaurant",
      "food_type": ["Non-Vegetarian"],
      "lat": 37.5682,
      "lon": 126.9988,
      "address": "62-29 Changgyeonggung-ro, Jongno-gu",
      "formatted_address": "Wooraeok, 62-29 Changgyeonggung-ro, Jongno-gu, Seoul, South Korea",
      "cuisine": "korean;noodle",
      "opening_hours": "Mo-Su 11:30-21:30",
      "source": "curated"
    },
    {
      "name": "Bukchon Son Mandoo",
      "city": "Seoul",
      "country": "South Korea",
      "category": "restaurant",
      "food_type": ["Non-Vegetarian", "Vegetarian"],
      "lat": 37.5790,
      "lon": 126.9718,
      "address": "84 Yulgok-ro 3-gil, Jongno-gu",
      "formatted_address": "Bukchon Son Mandoo, 84 Yulgok-ro 3-gil, Jongno-gu, Seoul, South Korea",
      "cuisine": "korean;dumplings",
      "opening_hours": "Mo-Su 10:30-21:00",
      "source": "curated"
    },
    {
      "name": "Samcheonggak",
      "city": "Seoul",
      "country": "South Korea",
      "category": "restaurant",
      "food_type": ["Non-Vegetarian", "No Preference"],
      "lat": 37.5974,
      "lon": 126.9841,
      "address": "330-115 Bukhansanseong-ro, Seongbuk-gu",
      "formatted_address": "Samcheonggak, 330-115 Bukhansanseong-ro, Seongbuk-gu, Seoul, South Korea",
      "cuisine": "korean;traditional",
      "opening_hours": "Tu-Su 12:00-22:00",
      "source": "curated"
    },
    {
      "name": "Tosokchon Samgyetang",
      "city": "Seoul",
      "country": "South Korea",
      "category": "restaurant",
      "food_type": ["Non-Vegetarian"],
      "lat": 37.5792,
      "lon": 126.9697,
      "address": "5 Jahamun-ro 5-gil, Jongno-gu",
      "formatted_address": "Tosokchon, 5 Jahamun-ro 5-gil, Jongno-gu, Seoul, South Korea",
      "cuisine": "korean;ginseng_chicken",
      "opening_hours": "Mo-Su 10:00-21:00",
      "source": "curated"
    },
    {
      "name": "Plant Cafe & Kitchen",
      "city": "Seoul",
      "country": "South Korea",
      "category": "restaurant",
      "food_type": ["Vegetarian", "Vegan"],
      "lat": 37.5207,
      "lon": 127.0225,
      "address": "Itaewon-ro, Yongsan-gu",
      "formatted_address": "Plant Cafe & Kitchen, Itaewon-ro, Yongsan-gu, Seoul, South Korea",
      "cuisine": "vegan;plant_based",
      "opening_hours": "Mo-Su 11:00-21:00",
      "source": "curated"
    },
    {
      "name": "Signiel Seoul",
      "city": "Seoul",
      "country": "South Korea",
      "category": "hotel",
      "lat": 37.5127,
      "lon": 127.1025,
      "address": "300 Olympic-ro, Songpa-gu",
      "formatted_address": "Signiel Seoul, 300 Olympic-ro, Songpa-gu, Seoul, South Korea",
      "rating": 9.3,
      "price": 82357,
      "currency": "INR",
      "stars": 5,
      "source": "curated"
    },
    {
      "name": "Hotel Naru Seoul - MGallery Collection",
      "city": "Seoul",
      "country": "South Korea",
      "category": "hotel",
      "lat": 37.5372,
      "lon": 126.9440,
      "address": "95 Mapo-daero, Mapo-gu",
      "formatted_address": "Hotel Naru Seoul MGallery, 95 Mapo-daero, Mapo-gu, Seoul, South Korea",
      "rating": 9.1,
      "price": 86158,
      "currency": "INR",
      "stars": 5,
      "source": "curated"
    },
    {
      "name": "Shilla Stay Gangnam",
      "city": "Seoul",
      "country": "South Korea",
      "category": "hotel",
      "lat": 37.5048,
      "lon": 127.0416,
      "address": "322 Teheran-ro, Gangnam-gu",
      "formatted_address": "Shilla Stay Gangnam, 322 Teheran-ro, Gangnam-gu, Seoul, South Korea",
      "rating": 8.1,
      "price": 37369,
      "currency": "INR",
      "stars": 4,
      "source": "curated"
    },
    {
      "name": "ibis Styles Ambassador Seoul Yongsan",
      "city": "Seoul",
      "country": "South Korea",
      "category": "hotel",
      "lat": 37.5323,
      "lon": 126.9617,
      "address": "95 Cheongpa-ro, Yongsan-gu",
      "formatted_address": "ibis Styles Ambassador Seoul Yongsan, 95 Cheongpa-ro, Yongsan-gu, Seoul, South Korea",
      "rating": 8.4,
      "price": 24707,
      "currency": "INR",
      "stars": 4,
      "source": "curated"
    },
    {
      "name": "Jongno KS Stay",
      "city": "Seoul",
      "country": "South Korea",
      "category": "hotel",
      "lat": 37.5731,
      "lon": 126.9887,
      "address": "Jongno-gu",
      "formatted_address": "Jongno KS Stay, Jongno-gu, Seoul, South Korea",
      "rating": 8.6,
      "price": 26641,
      "currency": "INR",
      "stars": 2,
      "source": "curated"
    },
    {
      "name": "Ramada by Wyndham Seoul Dongdaemun",
      "city": "Seoul",
      "country": "South Korea",
      "category": "hotel",
      "lat": 37.5659,
      "lon": 127.0026,
      "address": "266 Cheonggyecheon-ro, Dongdaemun-gu",
      "formatted_address": "Ramada by Wyndham Seoul Dongdaemun, 266 Cheonggyecheon-ro, Dongdaemun-gu, Seoul, South Korea",
      "rating": 8.1,
      "price": 41314,
      "currency": "INR",
      "stars": 3,
      "source": "curated"
    },
    {
      "name": "Meininger Hotel Seoul Dongdaemun",
      "city": "Seoul",
      "country": "South Korea",
      "category": "hostel",
      "lat": 37.5710,
      "lon": 127.0105,
      "address": "Eulji-ro, Dongdaemun-gu",
      "formatted_address": "Meininger Hotel Seoul Dongdaemun, Eulji-ro, Dongdaemun-gu, Seoul, South Korea",
      "rating": 8.5,
      "price": 4500,
      "currency": "INR",
      "stars": 1,
      "source": "curated"
    },
    {
      "name": "Kpop Guesthouse Seoul",
      "city": "Seoul",
      "country": "South Korea",
      "category": "hostel",
      "lat": 37.5571,
      "lon": 126.9237,
      "address": "Hongik-ro, Mapo-gu",
      "formatted_address": "Kpop Guesthouse Seoul, Mapo-gu, Seoul, South Korea",
      "rating": 8.3,
      "price": 3500,
      "currency": "INR",
      "stars": 1,
      "source": "curated"
    }
  ]
}
