{
  "city": "Singapore",
  "data": [
    {
      "name": "Jacob Ballas Children's Garden",
      "city": "Singapore",
      "country": "Singapore",
      "category": "attraction",
      "tags": ["Nature"],
      "lat": 1.3215,
      "lon": 103.8188,
      "address": "Jacob Ballas Children's Garden",
      "formatted_address": "Jacob Ballas Children's Garden, Singapore 259604, Singapore",
      "opening_hours": "Tu-Su 08:00-19:00",
      "phone": "+656465016",
      "source": "openstreetmap"
    },
    {
      "name": "National Orchid Garden",
      "city": "Singapore",
      "country": "Singapore",
      "category": "attraction",
      "tags": ["Nature", "Photography"],
      "lat": 1.3127,
      "lon": 103.8136,
      "address": "National Orchid Garden",
      "formatted_address": "National Orchid Garden, Tanglin, Singapore",
      "opening_hours": "Mo-Su 08:30-19:00",
      "source": "openstreetmap"
    },
    {
      "name": "HSBC TreeTop Walk",
      "city": "Singapore",
      "country": "Singapore",
      "category": "attraction",
      "tags": ["Nature", "Adventure"],
      "lat": 1.3610,
      "lon": 103.8114,
      "address": "HSBC TreeTop Walk",
      "formatted_address": "TreeTop Walk, Singapore 578774, Singapore",
      "opening_hours": "Tu-Fr 09:00-17:00; Sa-Su 08:30-17:00",
      "source": "openstreetmap"
    },
    {
      "name": "Marina Bay Sands SkyPark",
      "city": "Singapore",
      "country": "Singapore",
      "category": "attraction",
      "tags": ["Culture", "Photography"],
      "lat": 1.2833,
      "lon": 103.8607,
      "address": "10 Bayfront Avenue",
      "formatted_address": "Marina Bay Sands, 10 Bayfront Ave, Singapore 018956",
      "opening_hours": "Mo-Th,Su 11:00-21:00; Fr-Sa 11:00-22:00",
      "website": "https://www.marinabaysands.com/",
      "source": "curated"
    },
    {
      "name": "Gardens by the Bay",
      "city": "Singapore",
      "country": "Singapore",
      "category": "attraction",
      "tags": ["Nature", "Photography"],
      "lat": 1.2816,
      "lon": 103.8636,
      "address": "18 Marina Gardens Drive",
      "formatted_address": "Gardens by the Bay, 18 Marina Gardens Dr, Singapore 018953",
      "opening_hours": "Mo-Su 05:00-02:00",
      "website": "https://www.gardensbythebay.com.sg/",
      "source": "curated"
    },
    {
      "name": "Sentosa Island",
      "city": "Singapore",
      "country": "Singapore",
      "category": "attraction",
      "tags": ["Beaches", "Adventure"],
      "lat": 1.2494,
      "lon": 103.8303,
      "address": "Sentosa",
      "formatted_address": "Sentosa Island, Singapore 098269",
      "website": "https://www.sentosa.com.sg/",
      "source": "curated"
    },
    {
      "name": "Chinatown Heritage Centre",
      "city": "Singapore",
      "country": "Singapore",
      "category": "attraction",
      "tags": ["Culture", "Shopping"],
      "lat": 1.2820,
      "lon": 103.8443,
      "address": "48 Pagoda Street",
      "formatted_address": "Chinatown Heritage Centre, 48 Pagoda St, Singapore 059207",
      "opening_hours": "Mo-Su 09:00-20:00",
      "website": "https://www.chinatownheritagecentre.com.sg/",
      "source": "curated"
    },
    {
      "name": "Universal Studios Singapore",
      "city": "Singapore",
      "country": "Singapore",
      "category": "attraction",
      "tags": ["Adventure"],
      "lat": 1.2540,
      "lon": 103.8238,
      "address": "8 Sentosa Gateway",
      "formatted_address": "Universal Studios Singapore, 8 Sentosa Gateway, Singapore 098269",
      "opening_hours": "Mo-Su 10:00-18:00",
      "website": "https://www.rwsentosa.com/en/attractions/universal-studios-singapore",
      "source": "curated"
    },
    {
      "name": "Little India",
      "city": "Singapore",
      "country": "Singapore",
      "category": "attraction",
      "tags": ["Culture", "Shopping"],
      "lat": 1.3066,
      "lon": 103.8518,
      "address": "Little India",
      "formatted_address": "Little India, Singapore",
      "source": "curated"
    },
    {
      "name": "Boon Tong Kee",
      "city": "Singapore",
      "country": "Singapore",
      "category": "restaurant",
      "food_type": ["Non-Vegetarian"],
      "lat": 1.3255,
      "lon": 103.8494,
      "address": "399 Balestier Road",
      "formatted_address": "Boon Tong Kee, 399 Balestier Rd, Singapore 329801",
      "opening_hours": "Mo-Su 11:00-21:30",
      "phone": "+65 6254 3937",
      "website": "https://www.boontongkee.com.sg/",
      "source": "openstreetmap"
    },
    {
      "name": "Casuarina Curry",
      "city": "Singapore",
      "country": "Singapore",
      "category": "restaurant",
      "food_type": ["Non-Vegetarian", "Vegetarian"],
      "lat": 1.3772,
      "lon": 103.8281,
      "address": "136 Casuarina Road",
      "formatted_address": "Casuarina Curry, 136 Casuarina Rd, Singapore 579514",
      "opening_hours": "Mo-Su 07:00-00:00",
      "phone": "+65 6455 9093",
      "website": "https://www.casuarinacurry.com/",
      "source": "openstreetmap"
    },
    {
      "name": "Thai Royal Cuisine",
      "city": "Singapore",
      "country": "Singapore",
      "category": "restaurant",
      "food_type": ["Non-Vegetarian", "Vegetarian"],
      "lat": 1.3346,
      "lon": 103.8099,
      "address": "251 Arcadia Road",
      "formatted_address": "Thai Royal Cuisine, 251 Arcadia Rd, Singapore 289843",
      "phone": "+65 96436690",
      "website": "https://royalthaisg.com/",
      "source": "openstreetmap"
    },
    {
      "name": "Tandoori Corner",
      "city": "Singapore",
      "country": "Singapore",
      "category": "restaurant",
      "food_type": ["Non-Vegetarian", "Halal"],
      "lat": 1.3258,
      "lon": 103.8501,
      "address": "400 Balestier Road",
      "formatted_address": "Tandoori Corner, 400 Balestier Rd, Singapore 329802",
      "phone": "+65 62500200",
      "website": "https://www.tandooricorner.com.sg/",
      "source": "openstreetmap"
    },
    {
      "name": "Amano",
      "city": "Singapore",
      "country": "Singapore",
      "category": "restaurant",
      "food_type": ["Non-Vegetarian", "Vegetarian"],
      "lat": 1.3243,
      "lon": 103.7967,
      "address": "76 Namly Place",
      "formatted_address": "Amano, 76 Namly Place, Singapore 267194",
      "phone": "+65 6762 1587",
      "website": "https://www.amanosg.com/",
      "source": "openstreetmap"
    },
    {
      "name": "Pasta Fresca",
      "city": "Singapore",
      "country": "Singapore",
      "category": "restaurant",
      "food_type": ["Non-Vegetarian", "Vegetarian"],
      "lat": 1.3306,
      "lon": 103.7958,
      "address": "1 Fifth Avenue",
      "formatted_address": "Pasta Fresca, 1 Fifth Ave, Singapore 268802",
      "phone": "+65 6469 4920",
      "website": "https://www.pastafresca.com/",
      "source": "openstreetmap"
    },
    {
      "name": "Odette",
      "city": "Singapore",
      "country": "Singapore",
      "category": "restaurant",
      "food_type": ["Non-Vegetarian", "Vegetarian"],
      "lat": 1.2903,
      "lon": 103.8487,
      "address": "1 Saint Andrew's Road, National Gallery Singapore",
      "formatted_address": "Odette, 1 St Andrew's Rd, National Gallery Singapore, Singapore 178957",
      "cuisine": "french;fine_dining;michelin",
      "opening_hours": "Tu-Sa 12:00-14:00,19:00-22:00",
      "website": "https://www.odetterestaurant.com/",
      "source": "curated"
    },
    {
      "name": "Newton Food Centre",
      "city": "Singapore",
      "country": "Singapore",
      "category": "restaurant",
      "food_type": ["Non-Vegetarian", "Vegetarian", "No Preference"],
      "lat": 1.3116,
      "lon": 103.8381,
      "address": "500 Clemenceau Avenue North",
      "formatted_address": "Newton Food Centre, 500 Clemenceau Ave N, Singapore 229495",
      "cuisine": "hawker;singaporean",
      "opening_hours": "Mo-Su 12:00-02:00",
      "source": "curated"
    },
    {
      "name": "Marina Bay Sands Hotel",
      "city": "Singapore",
      "country": "Singapore",
      "category": "hotel",
      "lat": 1.2833,
      "lon": 103.8607,
      "address": "10 Bayfront Avenue",
      "formatted_address": "Marina Bay Sands, 10 Bayfront Ave, Singapore 018956",
      "rating": 9.0,
      "price": 60000,
      "currency": "INR",
      "stars": 5,
      "source": "curated"
    },
    {
      "name": "Raffles Hotel Singapore",
      "city": "Singapore",
      "country": "Singapore",
      "category": "hotel",
      "lat": 1.2944,
      "lon": 103.8522,
      "address": "1 Beach Road",
      "formatted_address": "Raffles Hotel Singapore, 1 Beach Rd, Singapore 189673",
      "rating": 9.5,
      "price": 80000,
      "currency": "INR",
      "stars": 5,
      "source": "curated"
    },
    {
      "name": "The Fullerton Hotel Singapore",
      "city": "Singapore",
      "country": "Singapore",
      "category": "hotel",
      "lat": 1.2863,
      "lon": 103.8524,
      "address": "1 Fullerton Square",
      "formatted_address": "The Fullerton Hotel, 1 Fullerton Square, Singapore 049178",
      "rating": 9.2,
      "price": 55000,
      "currency": "INR",
      "stars": 5,
      "source": "curated"
    },
    {
      "name": "Capella Singapore",
      "city": "Singapore",
      "country": "Singapore",
      "category": "hotel",
      "lat": 1.2485,
      "lon": 103.8278,
      "address": "1 The Knolls, Sentosa Island",
      "formatted_address": "Capella Singapore, 1 The Knolls, Sentosa Island, Singapore 098297",
      "rating": 9.6,
      "price": 90000,
      "currency": "INR",
      "stars": 5,
      "source": "curated"
    },
    {
      "name": "PARKROYAL COLLECTION Marina Bay",
      "city": "Singapore",
      "country": "Singapore",
      "category": "hotel",
      "lat": 1.2896,
      "lon": 103.8568,
      "address": "6 Raffles Boulevard",
      "formatted_address": "PARKROYAL COLLECTION Marina Bay, 6 Raffles Blvd, Singapore 039594",
      "rating": 8.8,
      "price": 28000,
      "currency": "INR",
      "stars": 5,
      "source": "curated"
    },
    {
      "name": "Ibis Singapore on Bencoolen",
      "city": "Singapore",
      "country": "Singapore",
      "category": "hotel",
      "lat": 1.2982,
      "lon": 103.8507,
      "address": "170 Bencoolen Street",
      "formatted_address": "Ibis Singapore, 170 Bencoolen St, Singapore 189657",
      "rating": 8.1,
      "price": 8500,
      "currency": "INR",
      "stars": 3,
      "source": "curated"
    }
  ]
}
