{
  "city": "Singapore",
  "data": [
    {
      "name": "Jacob Ballas Children's Garden",
      "city": "Singapore",
      "country": "Singapore",
      "category": "attraction",
      "lat": 1.3214855,
      "lon": 103.818758,
      "address": "Jacob Ballas Children's Garden",
      "formatted_address": "Jacob Ballas Children's Garden, Singapore 259604, Singapore",
      "opening_hours": "Tu-Su 08:00-19:00",
      "phone": "+656465016",
      "source": "openstreetmap"
    },
    {
      "name": "Coral Park Magic Tree",
      "city": "Singapore",
      "country": "Singapore",
      "category": "attraction",
      "lat": 1.3539848,
      "lon": 103.8436927,
      "address": "Coral Park Magic Tree",
      "formatted_address": "Coral Park Magic Tree, 88 Jalan Pemimpin, Singapore 577239, Singapore",
      "opening_hours": "24/7",
      "source": "openstreetmap"
    },
    {
      "name": "National Orchid Garden",
      "city": "Singapore",
      "country": "Singapore",
      "category": "attraction",
      "lat": 1.3127356,
      "lon": 103.8136121,
      "address": "National Orchid Garden",
      "formatted_address": "National Orchid Garden, Tanglin, Singapore",
      "opening_hours": "Mo-Su 08:30-19:00",
      "source": "openstreetmap"
    },
    {
      "name": "Healing Garden",
      "city": "Singapore",
      "country": "Singapore",
      "category": "attraction",
      "lat": 1.3172669,
      "lon": 103.8170097,
      "address": "Healing Garden",
      "formatted_address": "Healing Garden, Singapore 259598, Singapore",
      "opening_hours": "We-Mo 05:00-19:30",
      "source": "openstreetmap"
    },
    {
      "name": "HSBC TreeTop Walk",
      "city": "Singapore",
      "country": "Singapore",
      "category": "attraction",
      "lat": 1.3610473,
      "lon": 103.8113955,
      "address": "HSBC TreeTop Walk",
      "formatted_address": "TreeTop Walk, Singapore 578774, Singapore",
      "opening_hours": "Tu-Fr 09:00-17:00; Sa-Su 08:30-17:00",
      "source": "openstreetmap"
    },
    {
      "name": "An Enclosure for a Swing",
      "city": "Singapore",
      "country": "Singapore",
      "category": "attraction",
      "lat": 1.3598707,
      "lon": 103.8482042,
      "address": "An Enclosure for a Swing",
      "formatted_address": "Kallang Park Connector, Singapore 573975, Singapore",
      "website": "https://www.archify.com/sg/project/an-enclosure-for-a-swing",
      "source": "openstreetmap"
    },
    {
      "name": "Forest Discovery Centre",
      "city": "Singapore",
      "country": "Singapore",
      "category": "attraction",
      "lat": 1.3137975,
      "lon": 103.810677,
      "address": "Forest Discovery Centre",
      "formatted_address": "5 Gallop Road, Singapore 259015, Singapore",
      "opening_hours": "09:00-18:00",
      "source": "openstreetmap"
    },
    {
      "name": "Former Malay Film Productions",
      "city": "Singapore",
      "country": "Singapore",
      "category": "attraction",
      "lat": 1.326446,
      "lon": 103.8514982,
      "address": "Former Malay Film Productions",
      "formatted_address": "8 Jalan Ampas, Singapore 329507, Singapore",
      "source": "openstreetmap"
    },
    {
      "name": "Silo Ruins",
      "city": "Singapore",
      "country": "Singapore",
      "category": "attraction",
      "lat": 1.3590297,
      "lon": 103.7763411,
      "address": "Silo Ruins",
      "formatted_address": "Dairy Farm Loop, Singapore 679056, Singapore",
      "source": "openstreetmap"
    },
    {
      "name": "Shaw Foundation Symphony Stage",
      "city": "Singapore",
      "country": "Singapore",
      "category": "attraction",
      "lat": 1.313756,
      "lon": 103.8150421,
      "address": "Shaw Foundation Symphony Stage",
      "formatted_address": "Lower Palm Valley Road, Singapore 259569, Singapore",
      "source": "openstreetmap"
    },

    {
      "name": "Boon Tong Kee",
      "city": "Singapore",
      "country": "Singapore",
      "category": "restaurant",
      "lat": 1.3255374,
      "lon": 103.8494054,
      "address": "Boon Tong Kee",
      "formatted_address": "399 Balestier Road, Singapore",
      "opening_hours": "Mo-Su 11:00-21:30",
      "phone": "+65 6254 3937",
      "website": "https://www.boontongkee.com.sg/",
      "source": "openstreetmap"
    },
    {
      "name": "Casuarina Curry",
      "city": "Singapore",
      "country": "Singapore",
      "category": "restaurant",
      "lat": 1.3771592,
      "lon": 103.8280889,
      "address": "Casuarina Curry",
      "formatted_address": "136 Casuarina Road, Singapore",
      "opening_hours": "Mo-Su 07:00-00:00",
      "phone": "+65 6455 9093",
      "website": "https://www.casuarinacurry.com/",
      "source": "openstreetmap"
    },
    {
      "name": "Thai Royal Cuisine",
      "city": "Singapore",
      "country": "Singapore",
      "category": "restaurant",
      "lat": 1.3345564,
      "lon": 103.8099494,
      "address": "Thai Royal Cuisine",
      "formatted_address": "251 Arcadia Road, Singapore",
      "phone": "+65 96436690",
      "website": "https://royalthaisg.com/",
      "source": "openstreetmap"
    },
    {
      "name": "Tandoori Corner",
      "city": "Singapore",
      "country": "Singapore",
      "category": "restaurant",
      "lat": 1.3258161,
      "lon": 103.8500978,
      "address": "Tandoori Corner",
      "formatted_address": "400 Balestier Road, Singapore",
      "phone": "+65 62500200",
      "website": "https://www.tandooricorner.com.sg/",
      "source": "openstreetmap"
    },
    {
      "name": "Amano",
      "city": "Singapore",
      "country": "Singapore",
      "category": "restaurant",
      "lat": 1.3242565,
      "lon": 103.7966901,
      "address": "Amano",
      "formatted_address": "76 Namly Place, Singapore",
      "phone": "+65 6762 1587",
      "website": "https://www.amanosg.com/",
      "source": "openstreetmap"
    },
    {
      "name": "Pasta Fresca",
      "city": "Singapore",
      "country": "Singapore",
      "category": "restaurant",
      "lat": 1.3306068,
      "lon": 103.7958274,
      "address": "Pasta Fresca",
      "formatted_address": "1 Fifth Avenue, Singapore",
      "phone": "+65 6469 4920",
      "website": "https://www.pastafresca.com/",
      "source": "openstreetmap"
    },
    {
      "name": "Spize @ Rifle Range Road",
      "city": "Singapore",
      "country": "Singapore",
      "category": "restaurant",
      "lat": 1.3471729,
      "lon": 103.7805803,
      "address": "Spize @ Rifle Range Road",
      "formatted_address": "131 Rifle Range Road, Singapore",
      "phone": "+65 6337 7493",
      "website": "https://spize.sg/",
      "source": "openstreetmap"
    },
    {
      "name": "Burp Kitchen & Bar (Bishan Park)",
      "city": "Singapore",
      "country": "Singapore",
      "category": "restaurant",
      "lat": 1.3649737,
      "lon": 103.8358639,
      "address": "Burp Kitchen & Bar (Bishan Park)",
      "formatted_address": "510 Ang Mo Kio Avenue 1, Singapore",
      "phone": "+65 6459 5743",
      "website": "https://grub.com.sg/",
      "source": "openstreetmap"
    },
    {
      "name": "Peperoni Pizzeria (Greenwood)",
      "city": "Singapore",
      "country": "Singapore",
      "category": "restaurant",
      "lat": 1.3312332,
      "lon": 103.8072615,
      "address": "Peperoni Pizzeria",
      "formatted_address": "6 Greenwood Avenue, Singapore",
      "phone": "+65 64656556",
      "website": "https://www.peperoni.com.sg/",
      "source": "openstreetmap"
    },
    {
      "name": "Peperoni Pizzeria (Thomson)",
      "city": "Singapore",
      "country": "Singapore",
      "category": "restaurant",
      "lat": 1.35365,
      "lon": 103.8332785,
      "address": "Peperoni Pizzeria",
      "formatted_address": "267 Upper Thomson Road, Singapore",
      "phone": "+65 66816726",
      "website": "https://peperoni.com.sg/",
      "source": "openstreetmap"
    }
  ]
}